,Time,Time (s),Distance [m],Logger Temperature [癈],External Voltage [V],Channel01 [bar],Channel02 [bar],InlineAcc [g],LateralAcc [g],VerticalAcc [g],RollRate [deg/s],PitchRate [deg/s],YawRate [deg/s],RPM [rpm],Speed [km/h],TPS [%],TPS_2 [%],ACCY [g],Brake_press_F [bar],Brake_press_R [bar],Fuel_press [bar],Gear [gear],Mapping [#],PPS [%],Speed_fl [km/h],Speed_fr [km/h],Speed_rl [km/h],Speed_rr [km/h],Water_temp [癈],Steer_angle [deg],Fuel_tank [#],GPS_Speed [km/h],GPS_Nsat [#],GPS_LatAcc [g],GPS_LonAcc [g],GPS_Slope [deg],GPS_Heading [deg],GPS_Gyro [deg/s],GPS_Altitude [m],GPS_PosAccuracy [#],GPS_SpdAccuracy [#],GPS_Latitude [癩,GPS_Longitude [癩,GPS_Elevation [cm]
Lap: 1, 00.32.737,0,0,41.062,9.968,0.886,-1.667,-0.032,0,-0.995,-0.578,-0.264,-0.231,0,9.609,3.048,3.068,-2.961,4.648,4.558,0,1,3,0,0,0,0,0,90,3,0,0,10,0,0,-0.006,-0.011,-0.022,7.946,1.39,0.14,31.33582096,121.2274195,7.97
,,0.02,0,41.062,9.997,0.886,-1.667,-0.027,0.002,-0.995,-0.57,-0.12,-0.235,0,9.608,3.048,3.068,-2.953,4.648,4.558,0,1,3,0,0,0,0,0,90,3,0,0,10,0,0,-0.006,-0.011,-0.022,7.946,1.39,0.14,31.33582092,121.2274195,7.97
,,0.04,0,41.062,10.026,0.886,-1.667,-0.019,0.005,-0.995,-0.574,-0.016,-0.236,0,9.606,3.048,3.068,-2.945,4.648,4.558,0,1,3,0,0,0,0,0,90,3,0,0,10,0,0,-0.006,-0.011,-0.022,7.946,1.39,0.14,31.33582088,121.2274196,7.97
,,0.06,0,41.062,10.056,0.886,-1.667,-0.011,0.005,-0.994,-0.586,0.029,-0.236,0,9.605,3.048,3.068,-2.936,4.648,4.558,0,1,3,0,0,0,0,0,90,3,0,0,10,0,0,-0.006,-0.011,-0.022,7.946,1.39,0.14,31.33582084,121.2274196,7.97
,,0.08,0,41.062,10.085,0.886,-1.667,-0.004,0.005,-0.994,-0.599,-0.001,-0.234,0,9.603,3.048,3.068,-2.928,4.648,4.558,0,1,3,0,0,0,0,0,90,3,0,0,10,0,0,-0.006,-0.011,-0.022,7.946,1.39,0.14,31.3358208,121.2274196,7.97
,,0.1,0,41.062,10.114,0.886,-1.667,-0.001,0.005,-0.993,-0.608,-0.102,-0.23,0,9.602,3.048,3.068,-2.92,4.648,4.558,0,1,3,0,0,0,0,0,90,3,0,0,10,0,0,-0.006,-0.011,-0.022,7.946,1.39,0.14,31.33582076,121.2274196,7.98
,,0.12,0,41.062,10.143,0.886,-1.667,-0.001,0.005,-0.992,-0.609,-0.236,-0.227,0,9.6,3.048,3.068,-2.916,4.648,4.558,0,1,3,0,0,0,0,0,90,3,0,0,10,0,0,-0.006,-0.011,-0.022,7.946,1.39,0.14,31.33582072,121.2274197,7.98
,,0.14,0,41.062,10.173,0.886,-1.667,-0.003,0.002,-0.991,-0.604,-0.37,-0.231,0,9.599,3.048,3.068,-2.912,4.648,4.558,0,1,3,0,0,0,0,0,90,3,0,0,10,0,0,-0.006,-0.011,-0.022,7.946,1.39,0.14,31.33582068,121.2274197,7.98
,,0.16,0,41.062,10.202,0.886,-1.667,-0.008,0.004,-0.99,-0.599,-0.475,-0.241,0,9.597,3.048,3.068,-2.908,4.648,4.558,0,1,3,0,0,0,0,0,90,3,0,0,10,0,0,-0.006,-0.011,-0.022,7.946,1.39,0.14,31.33582064,121.2274197,7.98
,,0.18,0,41.062,10.231,0.886,-1.667,-0.013,0.005,-0.99,-0.598,-0.535,-0.258,0,9.596,3.048,3.068,-2.903,4.648,4.558,0,1,3,0,0,0,0,0,90,3,0,0,10,0,0,-0.006,-0.011,-0.022,7.946,1.39,0.14,31.3358206,121.2274198,7.98
,,0.2,0,41.062,10.26,0.886,-1.667,-0.018,0.005,-0.991,-0.609,-0.518,-0.269,0,9.595,3.048,3.068,-2.899,4.648,4.558,0,1,3,0,0,0,0,0,90,3,0,0,10,0,0,-0.006,-0.011,-0.022,7.946,1.39,0.14,31.33582055,121.2274198,7.98
,,0.22,0,41.062,10.289,0.886,-1.667,-0.021,0.005,-0.993,-0.618,-0.439,-0.267,0,9.593,3.044,3.058,-2.904,4.538,4.403,0,1,3,0,0,0,0,0,90,3,0,0,10,0,0,-0.006,-0.011,-0.022,7.946,1.39,0.14,31.33582051,121.2274198,7.98
,,0.24,0,41.062,10.319,0.886,-1.667,-0.022,0.004,-0.995,-0.611,-0.337,-0.253,0,9.592,3.04,3.049,-2.909,4.427,4.248,0,1,3,0,0,0,0,0,90,3,0,0,10,0,0,-0.006,-0.011,-0.022,7.946,1.39,0.14,31.33582047,121.2274198,7.99
,,0.26,0,41.062,10.348,0.886,-1.667,-0.021,0.003,-0.996,-0.594,-0.248,-0.236,0,9.59,3.036,3.039,-2.914,4.317,4.092,0,1,3,0,0,0,0,0,90,3,0,0,10,0,0,-0.006,-0.011,-0.022,7.947,1.39,0.14,31.33582043,121.2274199,7.99
,,0.28,0,41.062,10.377,0.886,-1.667,-0.019,0.002,-0.996,-0.573,-0.176,-0.223,0,9.589,3.032,3.029,-2.919,4.207,3.937,0,1,3,0,0,0,0,0,90,3,0,0,10,0,0,-0.006,-0.011,-0.022,7.947,1.39,0.14,31.33582039,121.2274199,7.99
,,0.3,0,41.062,10.406,0.886,-1.667,-0.016,0.002,-0.995,-0.564,-0.124,-0.222,0,9.587,3.028,3.019,-2.924,4.096,3.782,0,1,3,0,0,0,0,0,90,3,0,0,10,0,0,-0.006,-0.011,-0.022,7.947,1.39,0.14,31.33582035,121.2274199,7.99
,,0.32,0,41.062,10.436,0.886,-1.667,-0.013,0.002,-0.994,-0.57,-0.1,-0.226,0,9.54,3.019,3.012,-2.919,4.021,3.747,0,1,3,0,0,0,0,0,90,3,0,0,10,0,0,-0.006,-0.011,-0.022,7.949,1.388,0.136,31.33582031,121.22742,7.99
,,0.34,0,41.062,10.465,0.886,-1.667,-0.01,0.002,-0.994,-0.584,-0.117,-0.231,0,9.494,3.011,3.005,-2.914,3.945,3.713,0,1,3,0,0,0,0,0,90,3,0,0,10,0,0,-0.006,-0.011,-0.022,7.95,1.386,0.132,31.33582027,121.22742,7.99
,,0.36,0,41.062,10.494,0.886,-1.667,-0.007,0.002,-0.995,-0.59,-0.182,-0.234,0,9.447,3.002,2.997,-2.908,3.87,3.679,0,1,3,0,0,0,0,0,90,3,0,0,10,0,0,-0.006,-0.011,-0.022,7.951,1.384,0.128,31.33582023,121.22742,7.99
,,0.38,0,41.062,10.523,0.886,-1.668,-0.007,0.002,-0.995,-0.591,-0.276,-0.236,0,9.4,2.994,2.99,-2.903,3.794,3.644,0,1,3,0,0,0,0,0,90,3,0,0,10,0,0,-0.006,-0.011,-0.022,7.952,1.382,0.124,31.3358202,121.22742,7.99
,,0.4,0,41.062,10.552,0.886,-1.668,-0.01,0.002,-0.994,-0.614,-0.416,-0.245,0,9.353,2.985,2.982,-2.897,3.718,3.61,0,1,3,0,0,0,0,0,90,3,0,0,10,0,0,-0.006,-0.011,-0.022,7.954,1.38,0.12,31.33582016,121.2274201,8
,,0.42,0,41.062,10.582,0.886,-1.668,-0.013,0.002,-0.994,-0.637,-0.418,-0.251,0,9.268,2.975,2.978,-2.901,3.642,3.525,0,1,3,0,0,0,0,0,90,3,0,0,10,0,0,-0.006,-0.011,-0.022,7.954,1.38,0.124,31.33582013,121.2274201,8
,,0.44,0,41.062,10.611,0.886,-1.668,-0.017,0.002,-0.996,-0.653,-0.393,-0.254,0,9.182,2.964,2.973,-2.905,3.566,3.441,0,1,3,0,0,0,0,0,90,3,0,0,10,0,0,-0.006,-0.011,-0.022,7.955,1.38,0.128,31.3358201,121.2274201,8
,,0.46,0,41.062,10.64,0.886,-1.668,-0.019,0.003,-0.996,-0.654,-0.365,-0.254,0,9.097,2.954,2.969,-2.909,3.49,3.356,0,1,3,0,0,0,0,0,90,3,0,0,10,0,0,-0.006,-0.011,-0.022,7.955,1.38,0.132,31.33582007,121.2274201,8
,,0.48,0,41.062,10.669,0.887,-1.668,-0.021,0.004,-0.996,-0.645,-0.334,-0.248,0,9.011,2.943,2.965,-2.914,3.414,3.272,0,1,3,0,0,0,0,0,90,3,0,0,10,0,0,-0.006,-0.011,-0.022,7.956,1.38,0.136,31.33582004,121.2274201,8
,,0.5,0,41.062,10.699,0.888,-1.668,-0.02,0.005,-0.995,-0.641,-0.285,-0.236,0,8.925,2.933,2.96,-2.918,3.338,3.187,0,1,3,0,0,0,0,0,90,3,0,0,10,0,0,-0.006,-0.011,-0.022,7.957,1.38,0.14,31.33582002,121.2274202,8
,,0.52,0,41.062,10.728,0.888,-1.667,-0.018,0.005,-0.994,-0.633,-0.227,-0.23,1.947,8.936,2.951,2.978,-2.921,3.234,3.111,0,1,3,0,0,0,0,0,90,3,0,0,10,0,0,-0.006,-0.011,-0.022,7.957,1.378,0.14,31.33581999,121.2274202,8
,,0.54,0,41.062,10.757,0.888,-1.667,-0.015,0.005,-0.994,-0.624,-0.194,-0.231,3.894,8.946,2.97,2.996,-2.925,3.131,3.036,0,1,3,0,0,0,0,0,90,3,0,0,10,0,0,-0.006,-0.011,-0.022,7.957,1.376,0.14,31.33581997,121.2274202,8
,,0.56,0,41.062,10.786,0.888,-1.667,-0.012,0.004,-0.994,-0.608,-0.198,-0.239,5.84,8.956,2.988,3.014,-2.929,3.027,2.96,0,1,3,0,0,0,0,0,90,3,0,0,10,0,0,-0.006,-0.011,-0.022,7.957,1.374,0.14,31.33581995,121.2274202,8
,,0.58,0,41.062,10.815,0.887,-1.667,-0.01,0.003,-0.995,-0.586,-0.222,-0.251,7.787,8.967,3.007,3.032,-2.932,2.924,2.884,0,1,3,0,0,0,0,0,90,3,0,0,10,0,0,-0.006,-0.011,-0.022,7.957,1.372,0.14,31.33581993,121.2274202,8
,,0.6,0,41.062,10.845,0.887,-1.667,-0.009,0.002,-0.995,-0.575,-0.261,-0.249,9.734,8.977,3.026,3.05,-2.936,2.82,2.808,0,1,3,0,0,0,0,0,90,3,0,0,10,0,0,-0.006,-0.011,-0.022,7.957,1.37,0.14,31.33581992,121.2274202,8
,,0.62,0,41.062,10.874,0.887,-1.667,-0.01,0.002,-0.995,-0.573,-0.31,-0.24,52.031,8.852,3.476,3.484,-2.934,2.744,2.797,0,1,3,0,0,0,0,0,90,3,0,0,10,0,0,-0.006,-0.011,-0.022,7.957,1.37,0.136,31.3358199,121.2274202,8
,,0.64,0,41.062,10.903,0.887,-1.668,-0.012,0.003,-0.994,-0.579,-0.34,-0.228,94.329,8.728,3.926,3.919,-2.932,2.667,2.786,0,1,3,0,0,0,0,0,90,3,0,0,10,0,0,-0.006,-0.011,-0.022,7.957,1.37,0.132,31.33581989,121.2274203,8
,,0.66,0,41.062,10.932,0.887,-1.668,-0.013,0.002,-0.993,-0.584,-0.346,-0.226,136.626,8.604,4.376,4.354,-2.931,2.591,2.775,0,1,3,0,0,0,0,0,90,3,0,0,10,0,0,-0.006,-0.011,-0.022,7.956,1.37,0.128,31.33581988,121.2274203,8
,,0.68,0,41.062,10.962,0.885,-1.668,-0.015,0.002,-0.992,-0.582,-0.345,-0.23,178.923,8.479,4.826,4.789,-2.929,2.514,2.764,0,1,3,0,0,0,0,0,90,3,0,0,10,0,0,-0.006,-0.011,-0.022,7.956,1.37,0.124,31.33581987,121.2274203,8
,,0.7,0,41.062,10.991,0.884,-1.668,-0.017,0.003,-0.992,-0.58,-0.327,-0.239,221.22,8.355,5.276,5.224,-2.927,2.438,2.754,0,1,3,0,0,0,0,0,90,3,0,0,10,0,0,-0.006,-0.011,-0.022,7.956,1.37,0.12,31.33581986,121.2274203,8
,,0.72,0,41.062,11.02,0.885,-1.668,-0.018,0.004,-0.992,-0.58,-0.28,-0.252,221.774,8.361,5.488,5.463,-2.926,2.323,2.631,0,1,3,0,0,0,0,0,90,3,0,0,10,0,0,-0.006,-0.011,-0.022,7.956,1.368,0.124,31.33581985,121.2274203,8
,,0.74,0,41.062,11.049,0.886,-1.668,-0.017,0.005,-0.993,-0.581,-0.236,-0.26,222.327,8.367,5.699,5.703,-2.925,2.208,2.509,0,1,3,0,0,0,0,0,90,3,0,0,10,0,0,-0.006,-0.011,-0.022,7.956,1.366,0.128,31.33581985,121.2274203,8
,,0.76,0,41.062,11.078,0.886,-1.668,-0.016,0.005,-0.993,-0.589,-0.213,-0.253,222.88,8.372,5.911,5.943,-2.924,2.093,2.387,0,1,3,0,0,0,0,0,90,3,0,0,10,0,0,-0.006,-0.011,-0.022,7.956,1.364,0.132,31.33581984,121.2274203,8
,,0.78,0,41.062,11.108,0.885,-1.669,-0.014,0.004,-0.993,-0.59,-0.195,-0.238,223.434,8.378,6.122,6.182,-2.923,1.979,2.265,0,1,3,0,0,0,0,0,90,3,0,0,10,0,0,-0.006,-0.011,-0.022,7.956,1.362,0.136,31.33581984,121.2274203,8
,,0.8,0,41.062,11.137,0.885,-1.669,-0.012,0.005,-0.993,-0.583,-0.204,-0.223,223.987,8.384,6.334,6.422,-2.922,1.864,2.143,0,1,3,0,0,0,0,0,90,3,0,0,10,0,0,-0.006,-0.011,-0.022,7.956,1.36,0.14,31.33581984,121.2274203,8
,,0.82,0,41.062,11.166,0.885,-1.669,-0.01,0.005,-0.993,-0.572,-0.25,-0.215,224.889,8.228,6.377,6.457,-2.924,1.864,2.118,0,1,3,0,0,0,0,0,90,3,0,0,10,0,0,-0.006,-0.011,-0.022,7.956,1.358,0.142,31.33581984,121.2274203,8
,,0.84,0,41.062,11.195,0.884,-1.669,-0.01,0.005,-0.993,-0.564,-0.279,-0.214,225.79,8.072,6.42,6.491,-2.925,1.864,2.093,0,1,3,0,0,0,0,0,90,3,0,0,10,0,0,-0.006,-0.011,-0.022,7.956,1.356,0.144,31.33581984,121.2274203,8
,,0.86,0,41.062,11.225,0.884,-1.669,-0.01,0.005,-0.993,-0.556,-0.292,-0.223,226.692,7.917,6.462,6.525,-2.926,1.864,2.069,0,1,3,0,0,0,0,0,90,3,0,0,10,0,0,-0.006,-0.011,-0.022,7.956,1.354,0.146,31.33581984,121.2274203,8
,,0.88,0,41.062,11.254,0.885,-1.669,-0.011,0.005,-0.993,-0.559,-0.325,-0.236,227.594,7.761,6.505,6.56,-2.927,1.864,2.044,0,1,3,0,0,0,0,0,90,3,0,0,10,0,0,-0.006,-0.011,-0.022,7.956,1.352,0.148,31.33581984,121.2274203,8
,,0.9,0,41.062,11.283,0.885,-1.669,-0.013,0.005,-0.993,-0.571,-0.354,-0.245,228.495,7.605,6.548,6.594,-2.929,1.864,2.019,0,1,3,0,0,0,0,0,90,3,0,0,10,0,0,-0.006,-0.011,-0.022,7.956,1.35,0.15,31.33581984,121.2274203,8
,,0.92,0,41.062,11.312,0.885,-1.669,-0.014,0.005,-0.993,-0.582,-0.345,-0.249,229.09,7.51,6.591,6.647,-2.926,1.828,2.012,0,1,3,0,0,0,0,0,90,3,29.386,0,10,0,0,-0.006,-0.011,-0.022,7.956,1.35,0.15,31.33581984,121.2274203,8
,,0.94,0,41.062,11.341,0.884,-1.67,-0.015,0.005,-0.994,-0.591,-0.334,-0.249,229.684,7.416,6.634,6.699,-2.923,1.792,2.005,0,1,3,0,0,0,0,0,90,3,58.772,0,10,0,0,-0.006,-0.011,-0.022,7.956,1.35,0.15,31.33581984,121.2274203,8
,,0.96,0,41.062,11.371,0.885,-1.67,-0.017,0.005,-0.993,-0.605,-0.315,-0.248,230.278,7.321,6.677,6.752,-2.921,1.755,1.998,0,1,3,0,0,0,0,0,90,3,88.158,0,10,0,0,-0.006,-0.011,-0.022,7.956,1.35,0.15,31.33581984,121.2274203,8
,,0.98,0,41.062,11.4,0.885,-1.669,-0.017,0.005,-0.994,-0.613,-0.269,-0.251,230.873,7.226,6.719,6.805,-2.918,1.719,1.991,0,1,3,0,0,0,0,0,90,3,117.544,0,10,0,0,-0.006,-0.011,-0.022,7.956,1.35,0.15,31.33581983,121.2274203,8
,,1,0,41.062,11.429,0.885,-1.669,-0.016,0.005,-0.994,-0.616,-0.231,-0.256,231.467,7.131,6.762,6.857,-2.915,1.683,1.984,0,1,3,0,0,0,0,0,90,3,146.93,0,10,0,0,-0.006,-0.011,-0.022,7.956,1.35,0.15,31.33581983,121.2274203,8
,,1.02,0,41.062,11.469,0.885,-1.669,-0.015,0.005,-0.994,-0.618,-0.221,-0.257,231.323,7.079,6.788,6.89,-2.912,1.641,1.948,0,1,3,0,0,0,0,0,90,3,13205.351,0,10,0,0,-0.006,-0.011,-0.022,7.956,1.36,0.15,31.33581982,121.2274203,8
,,1.04,0,41.062,11.508,0.884,-1.669,-0.013,0.004,-0.993,-0.619,-0.213,-0.252,231.18,7.027,6.815,6.922,-2.909,1.599,1.912,0,1,3,0,0,0,0,0,90,3,26263.771,0,10,0,0,-0.006,-0.011,-0.022,7.956,1.37,0.15,31.33581982,121.2274204,8
,,1.06,0,41.061,11.548,0.884,-1.669,-0.011,0.005,-0.992,-0.619,-0.213,-0.245,231.037,6.974,6.841,6.954,-2.905,1.557,1.876,0,1,3,0,0,0,0,0,90,3,39322.191,0,10,0,0,-0.006,-0.011,-0.022,7.956,1.38,0.15,31.33581981,121.2274204,8
,,1.08,0,41.061,11.588,0.884,-1.668,-0.01,0.005,-0.99,-0.63,-0.255,-0.244,230.893,6.922,6.867,6.987,-2.902,1.515,1.839,0,1,3,0,0,0,0,0,90,3,52380.609,0,10,0,0,-0.006,-0.011,-0.022,7.956,1.39,0.15,31.3358198,121.2274204,8
,,1.1,0,41.06,11.627,0.884,-1.668,-0.011,0.004,-0.99,-0.67,-0.286,-0.243,230.75,6.869,6.893,7.019,-2.899,1.473,1.803,0,1,3,0,0,0,0,0,90,3,65439.031,0,10,0,0,-0.006,-0.011,-0.022,7.956,1.4,0.15,31.33581978,121.2274204,8
,,1.12,0,41.06,11.667,0.884,-1.669,-0.012,0.003,-0.991,-0.707,-0.251,-0.243,363.277,6.511,6.645,6.731,-2.918,1.372,1.71,0,1,3,0,0,0,0,0,90,3,65445.43,0,10,0,0,-0.006,-0.011,-0.022,7.956,1.442,0.15,31.33581976,121.2274205,8
,,1.14,0,41.059,11.707,0.884,-1.669,-0.013,0.002,-0.995,-0.684,-0.221,-0.244,495.804,6.152,6.397,6.443,-2.937,1.272,1.616,0,1,3,0,0,0,0,0,90,3,65451.824,0,10,0,0,-0.006,-0.011,-0.022,7.956,1.484,0.15,31.33581975,121.2274205,8
,,1.16,0,41.059,11.746,0.884,-1.67,-0.014,0.002,-0.995,-0.627,-0.308,-0.241,628.332,5.793,6.148,6.156,-2.955,1.171,1.523,0,1,3,0,0,0,0,0,90,3,65458.223,0,10,0,0,-0.006,-0.011,-0.022,7.956,1.526,0.15,31.33581973,121.2274206,8
,,1.18,0,41.058,11.786,0.883,-1.669,-0.017,0.003,-0.995,-0.589,-0.336,-0.235,760.859,5.434,5.9,5.868,-2.974,1.07,1.43,0,1,3,0,0,0,0,0,90,3,65464.617,0,10,0,0,-0.006,-0.011,-0.022,7.956,1.568,0.15,31.33581971,121.2274206,8
,,1.2,0,41.058,11.826,0.882,-1.669,-0.018,0.005,-0.997,-0.599,-0.313,-0.228,893.387,5.075,5.651,5.58,-2.993,0.969,1.336,0,1,3,0,0,0,0,0,90,3,65471.016,0,10,0,0,-0.006,-0.011,-0.022,7.956,1.61,0.15,31.33581969,121.2274206,8
,,1.22,0,41.057,11.865,0.883,-1.669,-0.018,0.006,-1,-0.614,-0.257,-0.228,1054.358,4.796,5.336,5.254,-3.041,0.863,1.281,0,1,3,0,0,0,0,0,90,3,65464.617,0,10,0,0,-0.006,-0.011,-0.022,7.956,1.6,0.144,31.33581966,121.2274207,8
,,1.24,0,41.057,11.905,0.884,-1.67,-0.017,0.007,-1.004,-0.585,-0.23,-0.239,1215.329,4.518,5.021,4.928,-3.089,0.756,1.226,0,1,3,0,0,0,0,0,90,3,65458.223,0,10,0,0,-0.006,-0.011,-0.022,7.956,1.59,0.138,31.33581964,121.2274207,8
,,1.26,0,41.056,11.944,0.884,-1.67,-0.016,0.007,-1.006,-0.487,-0.253,-0.253,1376.301,4.239,4.706,4.602,-3.138,0.65,1.17,0,1,3,0,0,0,0,0,90,3,65451.824,0,10,0,0,-0.006,-0.011,-0.022,7.956,1.58,0.132,31.33581961,121.2274208,8
,,1.28,0,41.056,11.984,0.885,-1.669,-0.014,0.009,-1.003,-0.379,-0.332,-0.267,1537.272,3.96,4.392,4.276,-3.186,0.543,1.115,0,1,3,0,0,0,0,0,90,3,65445.43,0,10,0,0,-0.006,-0.011,-0.022,7.956,1.57,0.126,31.33581959,121.2274208,8
,,1.3,0,41.055,12.024,0.885,-1.669,-0.014,0.009,-0.997,-0.336,-0.384,-0.277,1698.244,3.682,4.077,3.95,-3.234,0.437,1.059,0,1,3,0,0,0,0,0,90,3,65439.031,0,10,0,0,-0.006,-0.011,-0.022,7.956,1.56,0.12,31.33581957,121.2274209,8
,,1.32,0,41.055,12.063,0.885,-1.669,-0.014,0.006,-0.994,-0.388,-0.332,-0.277,1675.784,3.415,4.11,3.939,-3.28,0.471,1.004,0,1,3,0,0,0,0,0,90,3,52373.016,0,10,0,0,-0.006,-0.011,-0.022,7.955,1.556,0.126,31.33581954,121.2274209,8
,,1.34,0,41.054,12.103,0.885,-1.669,-0.014,0.002,-0.998,-0.554,-0.188,-0.262,1653.323,3.148,4.144,3.928,-3.327,0.506,0.948,0,1,3,0,0,0,0,0,90,3,39307,0,10,0,0,-0.006,-0.011,-0.022,7.955,1.552,0.132,31.33581952,121.227421,8
,,1.36,0,41.054,12.143,0.885,-1.669,-0.015,-0.001,-1.001,-0.569,-0.219,-0.253,1630.863,2.882,4.177,3.916,-3.374,0.54,0.893,0,1,3,0,0,0,0,0,90,3,26240.982,0,10,0,0,-0.006,-0.011,-0.022,7.955,1.548,0.138,31.3358195,121.227421,8
,,1.38,0,41.054,12.182,0.886,-1.669,-0.015,-0.001,-0.999,-0.536,-0.286,-0.244,1608.403,2.615,4.21,3.905,-3.42,0.575,0.838,0,1,3,0,0,0,0,0,90,3,13174.965,0,10,0,0,-0.006,-0.011,-0.022,7.955,1.544,0.144,31.33581949,121.227421,8
,,1.4,0,41.053,12.222,0.886,-1.669,-0.016,0,-0.995,-0.521,-0.344,-0.236,1585.943,2.348,4.244,3.894,-3.467,0.61,0.782,0,1,3,0,0,0,0,0,90,3,108.948,0,10,0,0,-0.006,-0.011,-0.022,7.955,1.54,0.15,31.33581947,121.227421,8
,,1.42,0,41.053,12.262,0.887,-1.669,-0.017,0.001,-0.992,-0.566,-0.353,-0.232,1526.719,2.273,4.203,3.888,-3.484,0.61,0.8,0,1,3,0,0,0,0,0,90,3,114.946,0,10,0,0,-0.006,-0.011,-0.022,7.955,1.538,0.148,31.33581946,121.2274211,8
,,1.44,0,41.052,12.301,0.887,-1.669,-0.017,0.002,-0.991,-0.655,-0.299,-0.236,1467.494,2.197,4.161,3.881,-3.502,0.61,0.818,0,1,3,0,0,0,0,0,90,3,120.943,0,10,0,0,-0.006,-0.011,-0.022,7.955,1.536,0.146,31.33581944,121.2274211,8
,,1.46,0,41.052,12.341,0.888,-1.669,-0.017,0.002,-0.994,-0.737,-0.223,-0.244,1408.27,2.121,4.12,3.875,-3.519,0.61,0.836,0,1,3,0,0,0,0,0,90,3,126.94,0,10,0,0,-0.006,-0.011,-0.022,7.955,1.534,0.144,31.33581943,121.2274211,8
,,1.48,0,41.051,12.38,0.888,-1.67,-0.015,0.003,-0.997,-0.756,-0.172,-0.253,1349.045,2.046,4.079,3.869,-3.537,0.61,0.854,0,1,3,0,0,0,0,0,90,3,132.937,0,10,0,0,-0.006,-0.011,-0.022,7.955,1.532,0.142,31.33581942,121.2274211,8
,,1.5,0,41.051,12.42,0.888,-1.67,-0.013,0.005,-0.998,-0.723,-0.195,-0.261,1289.821,1.97,4.037,3.863,-3.554,0.61,0.872,0,1,3,0,0,0,0,0,90,3,138.934,0,10,0,0,-0.006,-0.011,-0.022,7.955,1.53,0.14,31.33581942,121.2274211,8
,,1.52,0,41.05,12.46,0.888,-1.67,-0.011,0.008,-0.994,-0.651,-0.262,-0.262,1296.625,1.949,3.972,3.814,-3.555,0.61,0.894,0,1,3,0,0,0,0,0,90,3,138.734,0,10,0,0,-0.006,-0.011,-0.022,7.955,1.526,0.136,31.33581941,121.2274211,8
,,1.54,0,41.05,12.499,0.889,-1.67,-0.01,0.01,-0.99,-0.635,-0.27,-0.258,1303.428,1.928,3.907,3.765,-3.555,0.61,0.915,0,1,3,0,0,0,0,0,90,3,138.534,0,10,0,0,-0.006,-0.011,-0.022,7.955,1.522,0.132,31.33581941,121.2274211,8
,,1.56,0,41.049,12.539,0.889,-1.67,-0.009,0.01,-0.988,-0.634,-0.257,-0.253,1310.232,1.907,3.842,3.715,-3.556,0.61,0.937,0,1,3,0,0,0,0,0,90,3,138.335,0,10,0,0,-0.006,-0.011,-0.022,7.955,1.518,0.128,31.33581941,121.2274211,8
,,1.58,0,41.049,12.579,0.889,-1.669,-0.01,0.009,-0.989,-0.619,-0.245,-0.252,1317.036,1.887,3.777,3.666,-3.556,0.61,0.958,0,1,3,0,0,0,0,0,90,3,138.135,0,10,0,0,-0.006,-0.011,-0.022,7.955,1.514,0.124,31.33581941,121.2274211,8
,,1.6,0,41.048,12.618,0.889,-1.669,-0.011,0.007,-0.991,-0.582,-0.258,-0.256,1323.839,1.866,3.712,3.617,-3.557,0.61,0.98,0,1,3,0,0,0,0,0,90,3,137.935,0,10,0,0,-0.006,-0.011,-0.022,7.955,1.51,0.12,31.33581941,121.2274211,8
,,1.62,0,41.048,12.658,0.889,-1.669,-0.012,0.004,-0.993,-0.533,-0.287,-0.262,1339.906,1.84,3.65,3.551,-3.563,0.534,0.908,0,1,3,0,0,0,0,0,90,3,139.734,0,10,0,0,-0.006,-0.011,-0.022,7.955,1.508,0.12,31.33581941,121.2274211,8
,,1.64,0,41.047,12.698,0.889,-1.669,-0.013,0.002,-0.992,-0.509,-0.312,-0.266,1355.972,1.815,3.587,3.484,-3.569,0.459,0.837,0,1,3,0,0,0,0,0,90,3,141.533,0,10,0,0,-0.006,-0.011,-0.022,7.955,1.506,0.12,31.33581941,121.2274211,8
,,1.66,0,41.047,12.737,0.889,-1.668,-0.014,0.001,-0.991,-0.518,-0.301,-0.266,1372.038,1.789,3.525,3.417,-3.575,0.384,0.765,0,1,3,0,0,0,0,0,90,3,143.332,0,10,0,0,-0.006,-0.011,-0.022,7.955,1.504,0.12,31.33581941,121.2274211,8
,,1.68,0,41.046,12.777,0.89,-1.668,-0.015,0,-0.992,-0.553,-0.265,-0.262,1388.105,1.764,3.463,3.35,-3.582,0.309,0.694,0,1,3,0,0,0,0,0,90,3,145.131,0,10,0,0,-0.006,-0.011,-0.022,7.955,1.502,0.12,31.33581941,121.2274211,8
,,1.7,0,41.046,12.816,0.89,-1.667,-0.015,0,-0.995,-0.601,-0.234,-0.257,1404.171,1.738,3.4,3.283,-3.588,0.234,0.622,0,1,3,0,0,0,0,0,90,3,146.93,0,10,0,0,-0.006,-0.011,-0.022,7.955,1.5,0.12,31.33581941,121.2274211,8
,,1.72,0,41.046,12.856,0.89,-1.667,-0.015,0.001,-0.996,-0.621,-0.25,-0.254,1412.573,1.701,3.32,3.193,-3.602,0.187,0.53,0,1,3,0,0,0,0,0,90,3,13211.747,0,10,0,0,-0.006,-0.011,-0.022,7.955,1.496,0.124,31.33581942,121.2274211,8
,,1.74,0,41.045,12.896,0.89,-1.667,-0.015,0.002,-0.995,-0.621,-0.268,-0.251,1420.975,1.664,3.239,3.102,-3.615,0.14,0.439,0,1,3,0,0,0,0,0,90,3,26276.564,0,10,0,0,-0.006,-0.011,-0.022,7.955,1.492,0.128,31.33581942,121.2274211,8
,,1.76,0,41.045,12.935,0.89,-1.668,-0.015,0.005,-0.995,-0.618,-0.287,-0.248,1429.377,1.627,3.158,3.012,-3.629,0.093,0.347,0,1,3,0,0,0,0,0,90,3,39341.383,0,10,0,0,-0.006,-0.011,-0.022,7.955,1.488,0.132,31.33581942,121.2274211,8
,,1.78,0,41.044,12.975,0.889,-1.668,-0.015,0.006,-0.995,-0.615,-0.29,-0.247,1437.78,1.59,3.078,2.921,-3.643,0.047,0.255,0,1,3,0,0,0,0,0,90,3,52406.199,0,10,0,0,-0.006,-0.011,-0.022,7.955,1.484,0.136,31.33581942,121.2274211,8
,,1.8,0,41.044,13.015,0.889,-1.669,-0.014,0.007,-0.995,-0.611,-0.288,-0.249,1446.182,1.552,2.997,2.831,-3.656,0,0.163,0,1,3,0,0,0,0,0,90,3,65471.016,0,10,0,0,-0.006,-0.011,-0.022,7.955,1.48,0.14,31.33581942,121.2274211,8
,,1.82,0,41.043,13.054,0.889,-1.669,-0.013,0.007,-0.995,-0.608,-0.29,-0.252,1437.247,1.516,2.938,2.813,-3.67,0,0.192,0,1,3,0,0,0,0,0,90,3,52376.813,0,10,0,0,-0.006,-0.011,-0.022,7.955,1.474,0.136,31.33581942,121.2274211,8
,,1.84,0,41.043,13.094,0.888,-1.669,-0.013,0.007,-0.995,-0.597,-0.285,-0.254,1428.312,1.48,2.878,2.795,-3.683,0,0.22,0,1,3,0,0,0,0,0,90,3,39282.609,0,10,0,0,-0.006,-0.011,-0.022,7.955,1.468,0.132,31.33581942,121.2274211,8
,,1.86,0,41.042,13.134,0.888,-1.669,-0.013,0.006,-0.995,-0.588,-0.296,-0.256,1419.377,1.444,2.819,2.778,-3.696,0,0.248,0,1,3,0,0,0,0,0,90,3,26188.406,0,10,0,0,-0.006,-0.011,-0.022,7.955,1.462,0.128,31.33581942,121.2274211,8
,,1.88,0,41.042,13.173,0.888,-1.669,-0.013,0.005,-0.994,-0.578,-0.303,-0.254,1410.442,1.408,2.759,2.76,-3.71,0,0.277,0,1,3,0,0,0,0,0,90,3,13094.203,0,10,0,0,-0.006,-0.011,-0.022,7.955,1.456,0.124,31.33581942,121.2274211,8
,,1.9,0,41.041,13.213,0.888,-1.669,-0.013,0.004,-0.992,-0.592,-0.302,-0.252,1401.507,1.372,2.7,2.742,-3.723,0,0.305,0,1,3,0,0,0,0,0,90,3,0,0,10,0,0,-0.006,-0.011,-0.022,7.955,1.45,0.12,31.33581942,121.2274211,8
,,1.92,0,41.041,13.252,0.888,-1.669,-0.013,0.003,-0.993,-0.608,-0.278,-0.249,1383.863,1.332,2.688,2.74,-3.731,0,0.328,0.016,1,3,0.125,0,0,0,0,90,3,8.596,0,10,0,0,-0.006,-0.011,-0.022,7.955,1.45,0.12,31.33581942,121.2274211,8
,,1.94,0,41.04,13.292,0.888,-1.669,-0.013,0.002,-0.994,-0.624,-0.259,-0.249,1366.219,1.292,2.676,2.737,-3.739,0,0.351,0.033,1,3,0.25,0,0,0,0,90,3,17.192,0,10,0,0,-0.006,-0.011,-0.022,7.955,1.45,0.12,31.33581942,121.2274211,8
,,1.96,0,41.04,13.332,0.888,-1.669,-0.014,0.002,-0.994,-0.631,-0.246,-0.251,1348.574,1.253,2.665,2.734,-3.747,0,0.374,0.049,1,3,0.375,0,0,0,0,90,3,25.788,0,10,0,0,-0.006,-0.011,-0.022,7.955,1.45,0.12,31.33581942,121.2274211,8
,,1.98,0,41.039,13.371,0.889,-1.669,-0.015,0.003,-0.995,-0.635,-0.245,-0.252,1330.93,1.213,2.653,2.732,-3.756,0,0.397,0.065,1,3,0.5,0,0,0,0,90,3,34.384,0,10,0,0,-0.006,-0.011,-0.022,7.955,1.45,0.12,31.33581942,121.2274211,8
,,2,0,41.039,13.411,0.889,-1.669,-0.016,0.002,-0.996,-0.639,-0.242,-0.252,1313.285,1.173,2.641,2.729,-3.764,0,0.42,0.082,1,3,0.626,0,0,0,0,90,3,42.98,0,10,0,0,-0.006,-0.011,-0.022,7.955,1.45,0.12,31.33581942,121.2274211,8
,,2.02,0,41.039,13.408,0.888,-1.669,-0.015,0.002,-0.997,-0.651,-0.232,-0.254,1303.367,1.178,3.163,3.215,-3.758,0,0.366,0.216,1,3,1.885,0,0,0,0,90,3,61.971,0,10,0,0,-0.006,-0.011,-0.022,7.955,1.444,0.124,31.33581942,121.2274211,8
,,2.04,0,41.038,13.404,0.888,-1.669,-0.015,0.003,-0.998,-0.668,-0.223,-0.261,1293.448,1.183,3.685,3.701,-3.752,0,0.312,0.351,1,3,3.145,0,0,0,0,90,3,80.962,0,10,0,0,-0.006,-0.011,-0.022,7.955,1.438,0.128,31.33581942,121.2274211,8
,,2.06,0,41.038,13.401,0.886,-1.669,-0.014,0.004,-0.999,-0.68,-0.226,-0.265,1283.53,1.187,4.206,4.187,-3.747,0,0.258,0.486,1,3,4.404,0,0,0,0,90,3,99.953,0,10,0,0,-0.006,-0.011,-0.022,7.955,1.432,0.132,31.33581942,121.2274211,8
,,2.08,0,41.037,13.398,0.884,-1.668,-0.015,0.005,-1.001,-0.669,-0.268,-0.264,1273.611,1.192,4.728,4.673,-3.741,0,0.204,0.62,1,3,5.664,0,0,0,0,90,3,118.944,0,10,0,0,-0.006,-0.011,-0.022,7.955,1.426,0.136,31.33581942,121.2274211,8
,,2.1,0,41.037,13.394,0.883,-1.668,-0.016,0.005,-1.001,-0.637,-0.296,-0.256,1263.693,1.197,5.249,5.16,-3.735,0,0.15,0.755,1,3,6.923,0,0,0,0,90,3,137.935,0,10,0,0,-0.006,-0.011,-0.022,7.955,1.42,0.14,31.33581942,121.2274211,8
,,2.12,0,41.037,13.391,0.883,-1.668,-0.017,0.004,-1,-0.598,-0.326,-0.243,1266.807,1.297,5.565,5.557,-3.707,0,0.185,0.865,1,3,9.683,0,0,0,0,90,3,138.734,0,10,0,0,-0.006,-0.011,-0.022,7.955,1.42,0.14,31.33581942,121.2274211,8
,,2.14,0,41.036,13.388,0.883,-1.669,-0.018,0.003,-0.999,-0.564,-0.354,-0.227,1269.922,1.398,5.881,5.955,-3.679,0,0.22,0.975,1,3,12.443,0,0,0,0,90,3,139.534,0,10,0,0,-0.006,-0.011,-0.022,7.955,1.42,0.14,31.33581942,121.2274211,8
,,2.16,0,41.036,13.384,0.883,-1.669,-0.019,0.002,-0.998,-0.554,-0.353,-0.218,1273.037,1.498,6.197,6.352,-3.651,0,0.254,1.086,1,3,15.203,0,0,0,0,90,3,140.334,0,10,0,0,-0.006,-0.011,-0.022,7.955,1.42,0.14,31.33581942,121.2274211,8
,,2.18,0,41.036,13.381,0.882,-1.669,-0.019,0.002,-0.997,-0.57,-0.315,-0.218,1276.152,1.599,6.513,6.75,-3.623,0,0.289,1.196,1,3,17.963,0,0,0,0,90,3,141.133,0,10,0,0,-0.006,-0.011,-0.022,7.955,1.42,0.14,31.33581942,121.2274211,8
,,2.2,0,41.035,13.378,0.88,-1.668,-0.019,0.001,-0.999,-0.602,-0.253,-0.227,1279.267,1.699,6.828,7.147,-3.595,0,0.324,1.306,1,3,20.723,0,0,0,0,90,3,141.933,0,10,0,0,-0.006,-0.011,-0.022,7.955,1.42,0.14,31.33581943,121.2274211,8
,,2.22,0,41.035,13.374,0.881,-1.668,-0.019,0,-1,-0.627,-0.217,-0.236,1308.756,1.779,6.967,7.296,-3.557,0,0.331,1.32,1,3,21.105,0,0,0,0,90,3,140.733,0,10,0,0,-0.006,-0.011,-0.022,7.955,1.418,0.14,31.33581943,121.2274211,8
,,2.24,0,41.035,13.371,0.881,-1.667,-0.019,0,-1.003,-0.642,-0.217,-0.248,1338.246,1.86,7.106,7.445,-3.519,0,0.338,1.333,1,3,21.487,0,0,0,0,90,3,139.534,0,10,0,0,-0.006,-0.011,-0.022,7.955,1.416,0.14,31.33581943,121.2274211,8
,,2.26,0,41.034,13.368,0.881,-1.667,-0.018,0,-1.002,-0.651,-0.244,-0.258,1367.735,1.94,7.244,7.595,-3.481,0,0.344,1.346,1,3,21.87,0,0,0,0,90,3,138.335,0,10,0,0,-0.006,-0.011,-0.022,7.955,1.414,0.14,31.33581943,121.2274211,8
,,2.28,0,41.034,13.364,0.88,-1.667,-0.017,0.001,-0.999,-0.675,-0.273,-0.265,1397.224,2.02,7.383,7.744,-3.442,0,0.351,1.359,1,3,22.252,0,0,0,0,90,3,137.135,0,10,0,0,-0.006,-0.011,-0.022,7.955,1.412,0.14,31.33581943,121.2274211,8
,,2.3,0,41.033,13.361,0.879,-1.668,-0.017,0.002,-0.996,-0.695,-0.294,-0.266,1426.713,2.1,7.522,7.893,-3.404,0,0.358,1.373,1,3,22.634,0,0,0,0,90,3,135.936,0,10,0,0,-0.006,-0.011,-0.022,7.955,1.41,0.14,31.33581943,121.2274211,8
,,2.32,0,41.033,13.358,0.877,-1.668,-0.019,0.004,-0.995,-0.703,-0.331,-0.267,1545.593,2.063,7.953,8.244,-3.386,0,0.37,1.415,1,3,23.365,0,0,0,0,90,3,136.735,0,10,0,0,-0.006,-0.011,-0.022,7.955,1.408,0.142,31.33581943,121.2274211,8
,,2.34,0,41.033,13.354,0.875,-1.669,-0.021,0.005,-0.994,-0.693,-0.381,-0.269,1664.472,2.025,8.384,8.596,-3.367,0,0.383,1.457,1,3,24.097,0,0,0,0,90,3,137.535,0,10,0,0,-0.006,-0.011,-0.022,7.955,1.406,0.144,31.33581943,121.2274211,8
,,2.36,0,41.032,13.351,0.875,-1.669,-0.024,0.007,-0.991,-0.668,-0.422,-0.27,1783.351,1.987,8.815,8.947,-3.349,0,0.395,1.5,1,3,24.828,0,0,0,0,90,3,138.335,0,10,0,0,-0.006,-0.011,-0.022,7.955,1.404,0.146,31.33581943,121.2274211,8
,,2.38,0,41.032,13.348,0.875,-1.669,-0.026,0.009,-0.989,-0.638,-0.437,-0.27,1902.23,1.95,9.246,9.299,-3.331,0,0.407,1.542,1,3,25.56,0,0,0,0,90,3,139.134,0,10,0,0,-0.006,-0.011,-0.022,7.955,1.402,0.148,31.33581943,121.2274211,8
,,2.4,0,41.032,13.344,0.875,-1.669,-0.029,0.009,-0.988,-0.614,-0.442,-0.266,2021.109,1.912,9.677,9.65,-3.312,0,0.42,1.585,1,3,26.291,0,0,0,0,90,3,139.934,0,10,0,0,-0.006,-0.011,-0.022,7.955,1.4,0.15,31.33581943,121.2274211,8
,,2.42,0,41.031,13.341,0.875,-1.669,-0.034,0.009,-0.988,-0.601,-0.469,-0.261,2151.567,1.832,9.634,9.584,-3.325,0,0.408,1.629,1,3,26.698,0,0,0,0,90,3,111.947,0,10,0,0,-0.006,-0.011,-0.022,7.955,1.4,0.15,31.33581943,121.2274211,8
,,2.44,0,41.031,13.338,0.876,-1.669,-0.04,0.007,-0.989,-0.592,-0.524,-0.256,2282.024,1.752,9.591,9.517,-3.338,0,0.397,1.673,1,3,27.104,0,0,0,0,90,3,83.96,0,10,0,0,-0.006,-0.011,-0.022,7.955,1.4,0.15,31.33581943,121.2274211,8
,,2.46,0,41.03,13.334,0.877,-1.669,-0.052,0.006,-0.991,-0.572,-0.602,-0.248,2412.482,1.671,9.549,9.451,-3.351,0,0.386,1.718,1,3,27.511,0,0,0,0,90,3,55.974,0,10,0,0,-0.006,-0.011,-0.022,7.955,1.4,0.15,31.33581943,121.2274211,8
,,2.48,0,41.03,13.331,0.878,-1.669,-0.062,0.005,-0.992,-0.555,-0.675,-0.243,2542.939,1.591,9.506,9.385,-3.364,0,0.375,1.762,1,3,27.917,0,0,0,0,90,3,27.987,0,10,0,0,-0.006,-0.011,-0.022,7.955,1.4,0.15,31.33581942,121.2274211,8
,,2.5,0,41.03,13.328,0.879,-1.669,-0.073,0.005,-0.993,-0.542,-0.783,-0.239,2673.397,1.511,9.463,9.318,-3.377,0,0.364,1.806,1,3,28.324,0,0,0,0,90,3,0,0,10,0,0,-0.006,-0.011,-0.022,7.955,1.4,0.15,31.33581941,121.2274212,8
,,2.52,0,41.029,13.324,0.879,-1.669,-0.086,0.006,-0.993,-0.528,-0.874,-0.236,2719.567,1.459,9.606,9.374,-3.398,0,0.363,1.825,1,3,28.446,0,0,0,0,90,3,12947.072,0.02,10,0,0,-0.006,-0.011,-0.022,7.955,1.412,0.15,31.3358194,121.2274212,8
,,2.54,0,41.029,13.321,0.88,-1.669,-0.097,0.007,-0.992,-0.517,-0.861,-0.235,2765.738,1.407,9.749,9.431,-3.418,0,0.361,1.844,1,3,28.569,0,0,0,0,90,3,25894.145,0.04,10,0,0,-0.006,-0.011,-0.022,7.955,1.424,0.15,31.33581939,121.2274212,8
,,2.56,0,41.029,13.318,0.88,-1.669,-0.104,0.007,-0.993,-0.511,-0.781,-0.238,2811.908,1.354,9.892,9.487,-3.439,0,0.36,1.862,1,3,28.692,0,0,0,0,90,3,38841.219,0.06,10,0,0,-0.006,-0.011,-0.022,7.955,1.436,0.15,31.33581937,121.2274212,8
,,2.58,0,41.028,13.314,0.88,-1.669,-0.11,0.007,-0.994,-0.504,-0.724,-0.241,2858.079,1.302,10.035,9.543,-3.459,0,0.359,1.881,1,3,28.815,0,0,0,0,90,3,51788.289,0.08,10,0,0,-0.006,-0.011,-0.022,7.955,1.448,0.15,31.33581936,121.2274213,8
,,2.6,0.01,41.028,13.311,0.88,-1.669,-0.114,0.007,-0.994,-0.5,-0.653,-0.243,2904.249,1.25,10.178,9.599,-3.479,0,0.358,1.899,1,3,28.937,0,0,0,0,90,3,64735.363,0.1,10,0,0,-0.006,-0.011,-0.022,7.955,1.46,0.15,31.33581933,121.2274213,8
,,2.62,0.01,41.028,13.308,0.88,-1.669,-0.118,0.008,-0.995,-0.495,-0.58,-0.241,2875.702,1.261,10.175,9.621,-3.483,0,0.37,1.89,1,3,28.962,0,0,0,0,90,3,64722.57,0.14,10,0,0,-0.006,-0.011,-0.022,7.955,1.498,0.148,31.33581931,121.2274214,8
,,2.64,0.01,41.027,13.305,0.881,-1.669,-0.122,0.009,-0.995,-0.489,-0.544,-0.236,2847.156,1.271,10.173,9.643,-3.487,0,0.383,1.881,1,3,28.987,0,0,0,0,90,3,64709.777,0.18,10,0,0,-0.006,-0.011,-0.022,7.955,1.536,0.146,31.33581928,121.2274214,8
,,2.66,0.01,41.027,13.301,0.882,-1.669,-0.126,0.009,-0.994,-0.488,-0.473,-0.235,2818.609,1.282,10.17,9.665,-3.491,0,0.395,1.872,1,3,29.012,0,0,0,0,90,3,64696.98,0.22,10,0,0,-0.006,-0.011,-0.022,7.955,1.574,0.144,31.33581925,121.2274215,8
,,2.68,0.01,41.026,13.298,0.885,-1.668,-0.128,0.008,-0.995,-0.498,-0.44,-0.24,2790.063,1.293,10.167,9.687,-3.495,0,0.407,1.863,1,3,29.037,0,0,0,0,90,3,64684.188,0.26,10,0,0,-0.006,-0.011,-0.022,7.955,1.612,0.142,31.33581921,121.2274216,8
,,2.7,0.01,41.026,13.295,0.887,-1.668,-0.131,0.007,-0.996,-0.497,-0.462,-0.253,2761.516,1.304,10.164,9.709,-3.499,0,0.42,1.855,1,3,29.062,0,0,0,0,90,3,64671.395,0.3,10,0,0,-0.006,-0.011,-0.022,7.956,1.65,0.14,31.33581918,121.2274217,8
,,2.72,0.02,41.026,13.291,0.89,-1.668,-0.134,0.008,-0.998,-0.48,-0.452,-0.273,2714.813,1.347,10.047,9.649,-3.491,0,0.429,1.848,1,3,29.068,0,0,0,0,90,3,64684.188,0.38,10,0,0,-0.006,-0.011,-0.022,7.956,1.644,0.142,31.33581913,121.2274217,8
,,2.74,0.02,41.025,13.288,0.892,-1.668,-0.136,0.01,-1,-0.459,-0.415,-0.297,2668.11,1.389,9.93,9.59,-3.482,0,0.438,1.841,1,3,29.073,0,0,0,0,90,3,64696.98,0.46,10,0,0,-0.006,-0.011,-0.022,7.956,1.638,0.144,31.33581909,121.2274218,8
,,2.76,0.03,41.025,13.285,0.895,-1.668,-0.137,0.013,-1.001,-0.439,-0.438,-0.326,2621.406,1.432,9.814,9.53,-3.474,0,0.447,1.835,1,3,29.078,0,0,0,0,90,3,64709.777,0.54,10,0,0,-0.006,-0.011,-0.022,7.956,1.632,0.146,31.33581904,121.2274219,8
,,2.78,0.03,41.025,13.281,0.897,-1.669,-0.139,0.016,-1.001,-0.417,-0.46,-0.36,2574.703,1.475,9.697,9.47,-3.466,0,0.456,1.828,1,3,29.083,0,0,0,0,90,3,64722.57,0.62,10,0,0,-0.006,-0.011,-0.022,7.956,1.626,0.148,31.33581898,121.227422,8
,,2.8,0.03,41.024,13.278,0.9,-1.669,-0.14,0.016,-1.002,-0.402,-0.394,-0.399,2528,1.518,9.58,9.41,-3.458,0,0.465,1.821,1,3,29.088,0,0,0,0,90,3,64735.363,0.7,10,0,0,-0.006,-0.011,-0.022,7.956,1.62,0.15,31.33581893,121.2274221,8
,,2.82,0.04,41.024,13.275,0.902,-1.669,-0.142,0.016,-1.007,-0.364,-0.288,-0.447,2516.647,1.542,9.526,9.366,-3.452,0,0.418,1.817,1,3,29.112,0,0.13,0.153,0,90,3,64760.953,0.8,10,0,0,-0.006,-0.011,-0.022,7.956,1.614,0.15,31.33581887,121.2274222,8
,,2.84,0.05,41.024,13.271,0.905,-1.668,-0.144,0.015,-1.014,-0.174,-0.125,-0.54,2505.294,1.566,9.472,9.321,-3.447,0,0.372,1.813,1,3,29.136,0,0.259,0.306,0,90,3,64786.539,0.9,10,0,0,-0.006,-0.011,-0.022,7.956,1.608,0.15,31.33581881,121.2274224,8
,,2.86,0.05,41.023,13.268,0.907,-1.668,-0.147,0.017,-1.017,0.015,-0.123,-0.625,2493.941,1.59,9.418,9.277,-3.442,0,0.325,1.808,1,3,29.161,0,0.389,0.459,0,90,3,64812.129,1,10,0,0,-0.006,-0.011,-0.022,7.956,1.602,0.15,31.33581874,121.2274225,8
,,2.88,0.06,41.023,13.265,0.909,-1.669,-0.153,0.02,-1.012,0.223,-0.28,-0.725,2482.588,1.615,9.364,9.233,-3.436,0,0.278,1.804,1,3,29.185,0,0.518,0.612,0,90,3,64837.715,1.1,10,0,0,-0.006,-0.011,-0.022,7.956,1.596,0.15,31.33581867,121.2274226,8
,,2.9,0.07,41.022,13.261,0.91,-1.669,-0.16,0.023,-1.002,0.349,-0.324,-0.829,2471.235,1.639,9.31,9.188,-3.431,0,0.232,1.8,1,3,29.209,0,0.648,0.765,0,90,3,64863.305,1.2,10,0,0,-0.006,-0.011,-0.022,7.956,1.59,0.15,31.3358186,121.2274227,8
,,2.92,0.08,41.022,13.258,0.913,-1.669,-0.167,0.023,-0.995,0.323,-0.322,-0.926,2472.116,1.609,9.285,9.161,-3.431,0,0.267,1.8,1,3,29.233,0.265,0.82,0.931,0.284,90,3,64869.703,1.28,10,0,0,-0.006,-0.011,-0.022,7.956,1.588,0.15,31.33581852,121.2274229,8
,,2.94,0.08,41.022,13.255,0.915,-1.669,-0.177,0.02,-0.988,0.239,-0.451,-1.015,2472.997,1.58,9.261,9.135,-3.431,0,0.303,1.8,1,3,29.258,0.531,0.992,1.098,0.569,90,3,64876.098,1.36,10,0,0,-0.006,-0.011,-0.022,7.956,1.586,0.15,31.33581844,121.227423,8
,,2.96,0.09,41.021,13.251,0.918,-1.669,-0.184,0.016,-0.981,0.124,-0.449,-1.095,2473.878,1.55,9.236,9.108,-3.431,0,0.339,1.8,1,3,29.282,0.796,1.164,1.264,0.853,90,3,64882.496,1.44,10,0,0,-0.006,-0.011,-0.022,7.956,1.584,0.15,31.33581836,121.2274231,8
,,2.98,0.1,41.021,13.248,0.921,-1.669,-0.19,0.012,-0.98,0.005,-0.395,-1.179,2474.76,1.52,9.211,9.081,-3.431,0,0.374,1.8,1,3,29.306,1.062,1.336,1.43,1.137,90,3,64888.891,1.52,10,0,0,-0.006,-0.011,-0.022,7.956,1.582,0.15,31.33581827,121.2274233,8
,,3,0.11,41.021,13.245,0.924,-1.67,-0.197,0.011,-0.978,-0.061,-0.576,-1.274,2475.641,1.491,9.187,9.054,-3.431,0,0.41,1.8,1,3,29.331,1.327,1.508,1.596,1.421,90,3,64895.289,1.6,10,0,0,-0.006,-0.011,-0.022,7.956,1.58,0.15,31.33581817,121.2274234,8
,,3.02,0.12,41.021,13.238,0.926,-1.669,-0.204,0.014,-0.974,-0.116,-0.689,-1.389,2460.804,1.493,9.179,9.053,-3.431,0,0.38,1.8,1,3,29.346,1.525,1.673,1.755,1.624,90,3,64895.289,1.72,10,0,0,-0.006,-0.011,-0.022,7.956,1.576,0.15,31.33581808,121.2274235,8
,,3.04,0.14,41.021,13.232,0.928,-1.669,-0.214,0.02,-0.974,-0.281,-0.671,-1.685,2445.967,1.495,9.172,9.052,-3.43,0,0.35,1.8,1,3,29.361,1.722,1.839,1.914,1.827,90,3,64895.289,1.84,10,0,0,-0.006,-0.011,-0.022,7.956,1.572,0.15,31.33581797,121.2274237,8
,,3.06,0.15,41.02,13.226,0.929,-1.668,-0.216,0.026,-0.974,-0.371,-0.568,-1.863,2431.13,1.497,9.164,9.051,-3.43,0,0.32,1.8,1,3,29.376,1.92,2.004,2.073,2.03,90,3,64895.289,1.96,10,0,0,-0.006,-0.011,-0.022,7.956,1.568,0.15,31.33581786,121.2274238,8
,,3.08,0.16,41.02,13.22,0.931,-1.668,-0.217,0.031,-0.98,-0.494,-0.377,-2.055,2416.293,1.499,9.157,9.05,-3.43,0,0.29,1.8,1,3,29.391,2.117,2.17,2.231,2.233,90,3,64895.289,2.08,10,0,0,-0.006,-0.011,-0.022,7.956,1.564,0.15,31.33581776,121.227424,8
,,3.1,0.17,41.02,13.214,0.933,-1.667,-0.219,0.036,-0.983,-0.566,-0.444,-2.253,2401.457,1.502,9.149,9.049,-3.43,0,0.26,1.8,1,3,29.406,2.315,2.336,2.39,2.436,90,3,64895.289,2.2,10,0,0,-0.006,-0.011,-0.022,7.956,1.56,0.15,31.33581763,121.2274241,8
,,3.12,0.19,41.02,13.207,0.935,-1.668,-0.219,0.041,-0.985,-0.609,-0.314,-2.451,2384.242,1.509,9.115,9.021,-3.427,0,0.295,1.797,1,3,29.387,2.443,2.503,2.518,2.593,90,3,64888.891,2.32,10,0,0,-0.006,-0.011,-0.022,7.956,1.556,0.15,31.33581751,121.2274243,8
,,3.14,0.2,41.02,13.201,0.936,-1.669,-0.217,0.044,-0.996,-0.693,-0.055,-2.661,2367.029,1.517,9.082,8.994,-3.424,0,0.331,1.795,1,3,29.369,2.572,2.669,2.646,2.751,90,3,64882.496,2.44,10,0,0,-0.006,-0.011,-0.022,7.956,1.552,0.15,31.33581738,121.2274244,8
,,3.16,0.22,41.02,13.195,0.938,-1.669,-0.221,0.045,-1.002,-0.716,-0.329,-2.88,2349.814,1.525,9.048,8.966,-3.422,0,0.367,1.793,1,3,29.351,2.7,2.836,2.775,2.909,90,3,64876.098,2.56,10,0,0,-0.006,-0.011,-0.022,7.955,1.548,0.15,31.33581724,121.2274246,8
,,3.18,0.23,41.02,13.189,0.941,-1.669,-0.224,0.046,-0.998,-0.713,-0.527,-3.106,2332.601,1.533,9.014,8.938,-3.419,0,0.403,1.79,1,3,29.332,2.828,3.003,2.903,3.066,90,3,64869.703,2.68,10,0,0,-0.006,-0.011,-0.022,7.955,1.544,0.15,31.33581709,121.2274248,8
,,3.2,0.25,41.02,13.183,0.944,-1.669,-0.225,0.046,-0.997,-0.777,-0.403,-3.336,2315.386,1.541,8.98,8.91,-3.416,0,0.438,1.788,1,3,29.314,2.957,3.17,3.031,3.224,90,3,64863.305,2.8,10,0,0,-0.006,-0.011,-0.022,7.955,1.54,0.15,31.33581694,121.2274249,8
,,3.22,0.27,41.02,13.176,0.945,-1.669,-0.234,0.047,-0.982,-0.818,-0.893,-3.694,2300.386,1.542,8.949,8.861,-3.413,0,0.436,1.78,1,3,29.332,3.104,3.355,3.225,3.379,90,3,64876.098,2.94,10,0,0,-0.006,-0.011,0.129,7.957,1.534,0.15,31.33581678,121.2274251,8
,,3.24,0.29,41.02,13.17,0.947,-1.669,-0.24,0.046,-0.97,-0.913,-0.979,-3.94,2285.385,1.544,8.919,8.812,-3.41,0,0.434,1.773,1,3,29.35,3.252,3.54,3.418,3.534,90,3,64888.891,3.08,10,0,0,-0.006,-0.011,0.28,7.959,1.528,0.15,31.33581661,121.2274253,8
,,3.26,0.31,41.02,13.164,0.949,-1.668,-0.248,0.047,-0.964,-1.089,-1.029,-4.202,2270.384,1.546,8.888,8.764,-3.407,0,0.432,1.765,1,3,29.367,3.4,3.726,3.612,3.69,90,3,64901.688,3.22,10,0,0,-0.006,-0.011,0.432,7.961,1.522,0.15,31.33581643,121.2274255,8
,,3.28,0.33,41.02,13.158,0.95,-1.667,-0.257,0.048,-0.957,-1.298,-1.147,-4.484,2255.383,1.548,8.857,8.715,-3.404,0,0.43,1.758,1,3,29.385,3.548,3.911,3.805,3.845,90,3,64914.48,3.36,10,0,0,-0.006,-0.011,0.583,7.963,1.516,0.15,31.33581625,121.2274257,8
,,3.3,0.35,41.02,13.152,0.951,-1.666,-0.261,0.049,-0.953,-1.586,-0.909,-4.786,2240.383,1.55,8.827,8.667,-3.4,0,0.428,1.75,1,3,29.403,3.696,4.096,3.999,4,90,3,64927.273,3.5,10,0,0,-0.006,-0.011,0.734,7.965,1.51,0.15,31.33581606,121.2274259,8.01
,,3.32,0.37,41.02,13.145,0.953,-1.667,-0.262,0.051,-0.957,-1.898,-0.739,-5.104,2225.71,1.551,8.789,8.628,-3.398,0,0.387,1.75,1,3,29.373,3.85,4.293,4.234,4.208,90,3,64901.684,3.66,10,0,0,-0.006,-0.011,0.4,7.967,1.508,0.15,31.33581586,121.2274261,8.01
,,3.34,0.39,41.02,13.139,0.954,-1.668,-0.266,0.055,-0.957,-2.147,-0.906,-5.433,2211.037,1.553,8.752,8.59,-3.396,0,0.347,1.75,1,3,29.343,4.005,4.489,4.469,4.416,90,3,64876.098,3.82,10,0,0,-0.006,-0.011,0.065,7.97,1.506,0.15,31.33581566,121.2274263,8.01
,,3.36,0.42,41.02,13.133,0.956,-1.669,-0.266,0.061,-0.959,-2.408,-0.755,-5.768,2196.364,1.554,8.714,8.552,-3.394,0,0.306,1.75,1,3,29.314,4.16,4.686,4.704,4.624,90,3,64850.508,3.98,10,0,0,-0.006,-0.011,-0.27,7.972,1.504,0.15,31.33581544,121.2274266,8.01
,,3.38,0.44,41.02,13.127,0.957,-1.669,-0.262,0.069,-0.969,-2.667,-0.514,-6.115,2181.691,1.556,8.677,8.514,-3.391,0,0.266,1.75,1,3,29.284,4.315,4.882,4.939,4.832,90,3,64824.922,4.14,10,0,0,-0.006,-0.011,-0.604,7.974,1.502,0.15,31.33581522,121.2274268,8.02
,,3.4,0.47,41.02,13.12,0.959,-1.67,-0.258,0.076,-0.98,-2.85,-0.681,-6.653,2167.018,1.557,8.639,8.476,-3.389,0,0.226,1.75,1,3,29.255,4.469,5.079,5.173,5.04,90,3,64799.332,4.3,10,0,0,-0.006,-0.011,-0.939,7.977,1.5,0.15,31.33581499,121.2274271,8.02
,,3.42,0.5,41.02,13.114,0.961,-1.669,-0.252,0.083,-0.991,-2.883,-0.356,-7.04,2152.058,1.559,8.598,8.444,-3.388,0,0.245,1.74,1,3,29.186,4.622,5.267,5.596,5.291,90,3,64805.73,4.48,10,0,0,-0.006,-0.011,-3.043,7.977,1.496,0.15,31.33581475,121.2274273,8.02
,,3.44,0.52,41.02,13.108,0.963,-1.668,-0.252,0.092,-0.998,-2.752,-0.607,-7.453,2137.099,1.562,8.556,8.411,-3.386,0,0.264,1.73,1,3,29.118,4.774,5.454,6.019,5.542,90,3,64812.129,4.66,10,0,0,-0.006,-0.011,-5.147,7.978,1.492,0.15,31.3358145,121.2274276,8.02
,,3.46,0.55,41.02,13.102,0.965,-1.668,-0.258,0.102,-0.991,-2.528,-1.049,-7.888,2122.139,1.564,8.515,8.379,-3.384,0,0.283,1.719,1,3,29.05,4.926,5.642,6.442,5.793,90,3,64818.523,4.84,10,0,0,-0.006,-0.011,-7.251,7.978,1.488,0.15,31.33581426,121.2274279,8.02
,,3.48,0.58,41.02,13.096,0.966,-1.668,-0.261,0.11,-0.994,-2.408,-0.749,-8.328,2107.179,1.567,8.473,8.346,-3.383,0,0.302,1.709,1,3,28.981,5.078,5.83,6.864,6.044,90,3,64824.922,5.02,10,0,0,-0.006,-0.011,-9.354,7.979,1.484,0.15,31.33581399,121.2274282,8.02
,,3.5,0.61,41.02,13.089,0.968,-1.668,-0.256,0.116,-1.009,-2.225,-0.198,-8.758,2092.219,1.569,8.432,8.314,-3.381,0,0.321,1.699,1,3,28.913,5.231,6.018,7.287,6.296,90,3,64831.32,5.2,10,0,0,-0.006,-0.011,-11.458,7.979,1.48,0.15,31.33581372,121.2274285,8.02
,,3.52,0.64,41.019,13.083,0.97,-1.667,-0.232,0.118,-1.03,-1.726,0.776,-9.134,2077.608,1.574,8.405,8.293,-3.38,0,0.323,1.699,1,3,28.838,5.373,6.198,7.257,6.495,90,3,64824.922,5.36,10,0,0,-0.006,-0.011,-12.306,7.983,1.478,0.15,31.33581345,121.2274288,8.02
,,3.54,0.68,41.019,13.077,0.972,-1.667,-0.2,0.119,-1.063,-0.97,1.805,-9.406,2062.996,1.579,8.378,8.272,-3.378,0,0.325,1.699,1,3,28.764,5.516,6.379,7.226,6.695,90,3,64818.523,5.52,10,0,0,-0.006,-0.011,-13.154,7.986,1.476,0.15,31.33581318,121.2274292,8.03
,,3.56,0.71,41.019,13.071,0.973,-1.667,-0.182,0.122,-1.094,0.042,1.632,-9.578,2048.385,1.584,8.352,8.25,-3.377,0,0.327,1.699,1,3,28.689,5.659,6.56,7.196,6.895,90,3,64812.129,5.68,10,0,0,-0.006,-0.011,-14.002,7.989,1.474,0.15,31.3358129,121.2274295,8.03
,,3.58,0.74,41.019,13.065,0.974,-1.667,-0.175,0.126,-1.107,1.305,1.408,-9.672,2033.774,1.589,8.325,8.229,-3.375,0,0.329,1.699,1,3,28.615,5.802,6.741,7.165,7.094,90,3,64805.73,5.84,10,0,0,-0.006,-0.011,-14.85,7.992,1.472,0.15,31.33581263,121.2274298,8.03
,,3.6,0.78,41.019,13.058,0.976,-1.667,-0.184,0.131,-1.108,3.107,1.287,-9.754,2019.162,1.594,8.298,8.208,-3.374,0,0.331,1.699,1,3,28.54,5.945,6.922,7.135,7.294,90,3,64799.332,6,10,0,0,-0.006,-0.011,-15.698,7.996,1.47,0.15,31.33581234,121.2274302,8.04
,,3.62,0.82,41.019,13.052,0.977,-1.667,-0.207,0.13,-1.068,4.081,0.362,-9.856,1997.768,1.599,8.303,8.21,-3.37,0,0.349,1.689,1,3,28.45,6.099,7.101,7.159,7.359,90,3,64805.73,6.18,10,0,0,-0.006,-0.011,-14.58,7.999,1.466,0.15,31.33581204,121.2274306,8.04
,,3.64,0.85,41.019,13.046,0.978,-1.667,-0.235,0.119,-1.003,4.402,-0.362,-10.028,1976.373,1.604,8.308,8.212,-3.367,0,0.367,1.679,1,3,28.36,6.254,7.281,7.183,7.425,90,3,64812.129,6.36,10,0,0,-0.006,-0.011,-13.461,8.003,1.462,0.15,31.33581175,121.227431,8.05
,,3.66,0.89,41.019,13.04,0.979,-1.667,-0.263,0.1,-0.937,3.856,-0.798,-10.255,1954.978,1.609,8.312,8.214,-3.363,0,0.384,1.669,1,3,28.27,6.409,7.46,7.207,7.49,90,3,64818.523,6.54,10,0,0,-0.006,-0.011,-12.343,8.007,1.458,0.15,31.33581145,121.2274313,8.05
,,3.68,0.93,41.019,13.034,0.98,-1.668,-0.285,0.075,-0.879,2.755,-1.051,-10.512,1933.584,1.614,8.317,8.216,-3.36,0,0.402,1.659,1,3,28.18,6.564,7.64,7.231,7.556,90,3,64824.922,6.72,10,0,0,-0.006,-0.011,-11.225,8.011,1.454,0.15,31.33581114,121.2274317,8.05
,,3.7,0.97,41.019,13.027,0.981,-1.668,-0.299,0.049,-0.844,1.334,-0.937,-10.786,1912.189,1.619,8.322,8.218,-3.356,0,0.42,1.649,1,3,28.09,6.718,7.819,7.255,7.621,90,3,64831.32,6.9,10,0,0,-0.006,-0.011,-10.106,8.015,1.45,0.15,31.33581083,121.2274321,8.06
,,3.72,1.01,41.019,13.021,0.982,-1.668,-0.31,0.026,-0.834,-0.093,-1.079,-11.067,1886.635,1.645,8.325,8.224,-3.348,0,0.374,1.637,1,3,27.915,6.908,8.048,7.453,7.738,90,3,64856.906,7.06,10,-0.004,0.049,0.588,26.077,-8.992,8.02,1.448,0.15,31.33581051,121.2274325,8.06
,,3.74,1.05,41.019,13.015,0.983,-1.667,-0.317,0.014,-0.834,-1.179,-1.37,-11.368,1861.08,1.67,8.328,8.231,-3.339,0,0.328,1.625,1,3,27.739,7.097,8.277,7.65,7.854,90,3,64882.496,7.22,10,-0.007,0.098,1.182,52.165,-7.878,8.026,1.446,0.15,31.33581018,121.227433,8.07
,,3.76,1.1,41.019,13.009,0.983,-1.668,-0.319,0.02,-0.846,-2.061,-1.445,-11.68,1835.526,1.696,8.33,8.238,-3.331,0,0.282,1.613,1,3,27.564,7.286,8.506,7.848,7.971,90,3,64908.082,7.38,10,-0.011,0.146,1.775,78.253,-6.765,8.031,1.444,0.15,31.33580985,121.2274334,8.07
,,3.78,1.14,41.019,13.003,0.983,-1.668,-0.333,0.037,-0.861,-3.162,-2.307,-12.157,1809.971,1.721,8.333,8.245,-3.322,0,0.235,1.6,1,3,27.388,7.476,8.734,8.045,8.087,90,3,64933.672,7.54,10,-0.015,0.195,2.369,104.341,-5.651,8.037,1.442,0.15,31.33580952,121.2274338,8.08
,,3.8,1.18,41.019,12.996,0.982,-1.669,-0.329,0.059,-0.873,-3.879,-1.029,-12.5,1784.416,1.746,8.336,8.252,-3.313,0,0.189,1.588,1,3,27.213,7.665,8.963,8.243,8.203,90,3,64959.258,7.7,10,-0.018,0.244,2.962,130.429,-4.537,8.043,1.44,0.15,31.33580919,121.2274342,8.09
,,3.82,1.23,41.019,12.99,0.982,-1.669,-0.311,0.081,-0.934,-4.91,0.93,-12.852,1767.448,1.772,8.34,8.262,-3.303,0,0.196,1.58,1,3,27.145,7.853,9.216,8.722,8.463,90,3,65055.211,7.86,10,-0.021,0.246,2.962,130.429,-4.84,8.047,1.436,0.15,31.33580886,121.2274346,8.09
,,3.84,1.28,41.019,12.984,0.982,-1.67,-0.306,0.101,-0.982,-5.422,0.028,-13.235,1750.48,1.797,8.345,8.272,-3.293,0,0.202,1.573,1,3,27.077,8.041,9.469,9.201,8.724,90,3,65151.168,8.02,10,-0.023,0.248,2.962,130.429,-5.142,8.052,1.432,0.15,31.33580852,121.2274351,8.1
,,3.86,1.32,41.019,12.978,0.983,-1.669,-0.3,0.119,-0.999,-5.465,-0.401,-13.656,1733.512,1.822,8.349,8.282,-3.282,0,0.209,1.565,1,3,27.009,8.229,9.722,9.68,8.984,90,3,65247.121,8.18,10,-0.025,0.249,2.962,130.429,-5.445,8.057,1.428,0.15,31.33580816,121.2274355,8.1
,,3.88,1.37,41.019,12.972,0.983,-1.669,-0.269,0.138,-1.05,-5.605,1.702,-14.048,1716.544,1.847,8.353,8.291,-3.272,0,0.215,1.557,1,3,26.941,8.417,9.975,10.16,9.244,90,3,65343.078,8.34,10,-0.027,0.251,2.962,130.429,-5.747,8.062,1.424,0.15,31.3358078,121.227436,8.1
,,3.9,1.42,41.019,12.965,0.984,-1.668,-0.233,0.159,-1.11,-5.168,2.115,-14.4,1699.576,1.872,8.358,8.301,-3.261,0,0.222,1.55,1,3,26.873,8.605,10.227,10.639,9.504,90,3,65439.031,8.5,10,-0.029,0.253,2.962,130.429,-6.05,8.066,1.42,0.15,31.33580745,121.2274364,8.11
,,3.92,1.47,41.019,12.959,0.984,-1.668,-0.214,0.174,-1.126,-3.963,0.48,-14.727,1710.212,1.864,8.209,8.142,-3.26,0,0.247,1.534,1,3,26.345,8.716,10.376,10.961,10.14,90,3,52352.824,8.7,10,-0.037,0.254,2.962,130.429,-7.846,8.068,1.418,0.15,31.33580708,121.2274369,8.11
,,3.94,1.52,41.019,12.953,0.984,-1.668,-0.217,0.179,-1.132,-2.945,-0.292,-14.993,1720.848,1.856,8.06,7.984,-3.258,0,0.273,1.518,1,3,25.818,8.827,10.525,11.282,10.776,90,3,39266.617,8.9,10,-0.045,0.256,2.962,130.429,-9.643,8.069,1.416,0.15,31.3358067,121.2274374,8.11
,,3.96,1.58,41.019,12.947,0.984,-1.668,-0.24,0.178,-1.135,-2.033,-1.219,-15.212,1731.483,1.848,7.911,7.825,-3.257,0,0.299,1.503,1,3,25.291,8.938,10.673,11.604,11.412,90,3,26180.41,9.1,10,-0.053,0.257,2.962,130.429,-11.44,8.07,1.414,0.15,31.33580633,121.2274379,8.11
,,3.98,1.63,41.018,12.94,0.983,-1.667,-0.267,0.174,-1.084,-0.592,-1.306,-15.525,1742.119,1.839,7.762,7.666,-3.255,0,0.324,1.487,1,3,24.763,9.048,10.822,11.926,12.047,90,3,13094.203,9.3,10,-0.061,0.258,2.962,130.429,-13.237,8.071,1.412,0.15,31.33580594,121.2274384,8.11
,,4,1.68,41.018,12.934,0.983,-1.667,-0.273,0.168,-1.06,-0.234,-0.544,-15.715,1752.755,1.831,7.613,7.507,-3.253,0,0.35,1.471,1,3,24.236,9.159,10.97,12.248,12.683,90,3,7.996,9.5,10,-0.069,0.259,2.962,130.429,-15.034,8.072,1.41,0.15,31.33580555,121.2274389,8.11
,,4.02,1.74,41.016,12.938,0.983,-1.667,-0.277,0.165,-1.033,-0.051,-0.649,-15.887,1757.366,1.79,7.469,7.378,-3.263,0,0.364,1.467,1,3,23.919,9.351,11.172,11.924,12.655,90,3,13094.203,9.68,10,-0.077,0.26,2.911,130.135,-16.583,8.076,1.408,0.15,31.33580516,121.2274395,8.12
,,4.04,1.8,41.015,12.941,0.983,-1.668,-0.276,0.164,-1,0.129,-0.747,-16.047,1761.977,1.749,7.325,7.249,-3.272,0,0.378,1.462,1,3,23.602,9.543,11.373,11.601,12.626,90,3,26180.41,9.86,10,-0.085,0.26,2.859,129.842,-18.132,8.079,1.406,0.15,31.33580478,121.22744,8.12
,,4.06,1.86,41.013,12.945,0.983,-1.668,-0.272,0.164,-0.978,0.091,-0.68,-16.188,1766.588,1.708,7.181,7.12,-3.282,0,0.392,1.458,1,3,23.286,9.735,11.575,11.277,12.598,90,3,39266.617,10.04,10,-0.094,0.261,2.808,129.548,-19.681,8.083,1.404,0.15,31.33580439,121.2274405,8.13
,,4.08,1.91,41.011,12.948,0.981,-1.667,-0.269,0.166,-0.953,0.029,-1.172,-16.298,1771.198,1.667,7.037,6.991,-3.292,0,0.406,1.454,1,3,22.969,9.926,11.777,10.953,12.569,90,3,52352.824,10.22,10,-0.102,0.261,2.756,129.255,-21.231,8.086,1.402,0.15,31.33580401,121.2274411,8.13
,,4.1,1.97,41.009,12.952,0.979,-1.667,-0.266,0.166,-0.932,-0.071,-1.186,-16.399,1775.809,1.626,6.893,6.862,-3.301,0,0.42,1.449,1,3,22.652,10.118,11.978,10.629,12.54,90,3,65439.031,10.4,10,-0.11,0.261,2.705,128.962,-22.78,8.089,1.4,0.15,31.33580361,121.2274416,8.13
,,4.12,2.03,41.007,12.955,0.978,-1.667,-0.264,0.166,-0.938,-0.373,-0.713,-16.509,1750.029,1.608,6.93,6.901,-3.309,0,0.391,1.449,1,3,22.728,10.336,12.205,10.516,12.372,90,3,65426.238,10.58,10,-0.115,0.261,2.54,128.027,-23.119,8.092,1.398,0.148,31.33580322,121.2274422,8.14
,,4.14,2.1,41.005,12.959,0.976,-1.667,-0.265,0.167,-0.954,-0.516,-0.59,-16.634,1724.249,1.59,6.967,6.939,-3.318,0,0.362,1.449,1,3,22.805,10.554,12.432,10.402,12.203,90,3,65413.445,10.76,10,-0.119,0.262,2.375,127.092,-23.458,8.095,1.396,0.146,31.33580282,121.2274428,8.14
,,4.16,2.16,41.003,12.962,0.975,-1.667,-0.257,0.172,-0.983,-0.426,0.509,-16.891,1698.469,1.571,7.004,6.978,-3.326,0,0.333,1.449,1,3,22.881,10.771,12.659,10.288,12.035,90,3,65400.648,10.94,10,-0.123,0.262,2.21,126.157,-23.798,8.097,1.394,0.144,31.33580242,121.2274434,8.14
,,4.18,2.22,41.001,12.966,0.975,-1.667,-0.258,0.181,-1.017,-0.486,0.585,-17.11,1672.689,1.553,7.041,7.017,-3.334,0,0.304,1.449,1,3,22.957,10.989,12.886,10.175,11.866,90,3,65387.855,11.12,10,-0.128,0.262,2.045,125.221,-24.137,8.1,1.392,0.142,31.33580203,121.227444,8.14
,,4.2,2.29,40.999,12.969,0.974,-1.667,-0.269,0.188,-1.018,-0.291,-0.088,-17.36,1646.909,1.535,7.078,7.055,-3.342,0,0.275,1.449,1,3,23.033,11.207,13.113,10.061,11.698,90,3,65375.063,11.3,10,-0.132,0.262,1.88,124.286,-24.476,8.103,1.39,0.14,31.33580163,121.2274447,8.15
,,4.22,2.35,40.997,12.973,0.973,-1.667,-0.265,0.191,-1.019,-0.279,1.234,-17.657,1611.313,1.573,7.056,7.009,-3.339,0,0.26,1.434,1,3,22.868,11.334,13.305,10.65,12.104,90,3,52316.844,11.5,10,-0.134,0.262,1.88,124.286,-24.306,8.106,1.388,0.14,31.33580123,121.2274453,8.15
,,4.24,2.42,40.995,12.976,0.971,-1.666,-0.255,0.196,-1.043,-0.437,2.226,-18,1575.717,1.612,7.035,6.963,-3.336,0,0.245,1.418,1,3,22.702,11.461,13.497,11.238,12.51,90,3,39258.621,11.7,10,-0.135,0.263,1.88,124.286,-24.137,8.11,1.386,0.14,31.33580082,121.227446,8.15
,,4.26,2.49,40.993,12.98,0.97,-1.667,-0.261,0.202,-1.039,-0.216,0.629,-18.344,1540.121,1.65,7.013,6.916,-3.332,0,0.23,1.402,1,3,22.536,11.588,13.689,11.826,12.917,90,3,26200.4,11.9,10,-0.137,0.263,1.88,124.286,-23.967,8.113,1.384,0.14,31.33580042,121.2274466,8.16
,,4.28,2.56,40.991,12.983,0.97,-1.667,-0.269,0.208,-1.006,0.088,-0.227,-18.704,1504.525,1.688,6.991,6.87,-3.329,0,0.214,1.387,1,3,22.371,11.715,13.882,12.415,13.323,90,3,13142.181,12.1,10,-0.139,0.263,1.88,124.286,-23.798,8.117,1.382,0.14,31.33580002,121.2274473,8.16
,,4.3,2.63,40.989,12.987,0.97,-1.668,-0.262,0.211,-0.999,0.097,0.747,-19,1468.929,1.727,6.97,6.824,-3.325,0,0.199,1.371,1,3,22.205,11.842,14.074,13.003,13.73,90,3,83.96,12.3,10,-0.141,0.264,1.88,124.286,-23.628,8.12,1.38,0.14,31.33579962,121.227448,8.16
,,4.32,2.7,40.987,12.99,0.969,-1.668,-0.26,0.217,-1.005,0.189,0.405,-19.235,1427.246,1.792,6.805,6.641,-3.315,0,0.227,1.357,1,3,21.921,12.031,14.268,12.897,13.921,89.8,3,85.56,12.48,10,-0.143,0.264,1.868,124.227,-23.545,8.123,1.378,0.14,31.33579923,121.2274487,8.17
,,4.34,2.77,40.985,12.994,0.968,-1.668,-0.273,0.226,-0.984,0.485,-1.269,-19.391,1385.564,1.858,6.64,6.457,-3.306,0,0.255,1.343,1,3,21.637,12.219,14.462,12.79,14.112,89.6,3,87.159,12.66,10,-0.145,0.264,1.857,124.167,-23.463,8.125,1.376,0.14,31.33579883,121.2274494,8.17
,,4.36,2.85,40.983,12.997,0.967,-1.668,-0.271,0.235,-0.962,0.501,-0.83,-19.587,1343.881,1.923,6.475,6.274,-3.296,0,0.283,1.328,1,3,21.353,12.408,14.656,12.683,14.304,89.4,3,88.758,12.84,10,-0.147,0.264,1.845,124.108,-23.38,8.128,1.374,0.14,31.33579844,121.2274501,8.17
,,4.38,2.92,40.981,13.001,0.966,-1.667,-0.258,0.24,-0.964,0.336,-0.121,-19.689,1302.199,1.989,6.311,6.091,-3.286,0,0.311,1.314,1,3,21.07,12.597,14.85,12.577,14.495,89.2,3,90.357,13.02,10,-0.15,0.264,1.834,124.048,-23.298,8.13,1.372,0.14,31.33579805,121.2274508,8.17
,,4.4,2.99,40.979,13.004,0.966,-1.667,-0.257,0.242,-0.964,0.226,-0.326,-19.79,1260.516,2.055,6.146,5.908,-3.276,0,0.339,1.3,1,3,20.786,12.786,15.044,12.47,14.687,89,3,91.956,13.2,10,-0.152,0.264,1.822,123.988,-23.215,8.133,1.37,0.14,31.33579767,121.2274515,8.18
,,4.42,3.07,40.977,13.008,0.964,-1.667,-0.269,0.24,-0.959,0.212,-0.612,-19.898,1218.465,2.122,6.024,5.815,-3.27,0,0.339,1.3,1,3,20.696,12.967,15.234,12.621,14.84,89,3,103.551,13.4,10,-0.154,0.263,1.603,122.785,-23.293,8.132,1.37,0.14,31.33579729,121.2274523,8.17
,,4.44,3.15,40.975,13.011,0.962,-1.667,-0.276,0.238,-0.959,0.289,0.02,-20.031,1176.413,2.189,5.903,5.723,-3.263,0,0.339,1.3,1,3,20.606,13.149,15.423,12.771,14.993,89,3,115.146,13.6,10,-0.157,0.261,1.384,121.582,-23.371,8.131,1.37,0.14,31.33579691,121.227453,8.17
,,4.46,3.23,40.973,13.015,0.96,-1.667,-0.263,0.238,-0.966,0.468,1.117,-20.227,1134.362,2.257,5.781,5.63,-3.256,0,0.339,1.3,1,3,20.517,13.331,15.613,12.921,15.146,89,3,126.74,13.8,10,-0.16,0.26,1.166,120.379,-23.449,8.131,1.37,0.14,31.33579654,121.2274538,8.17
,,4.48,3.31,40.971,13.018,0.959,-1.667,-0.238,0.241,-0.969,0.728,1.753,-20.516,1092.311,2.324,5.659,5.537,-3.25,0,0.339,1.3,1,3,20.427,13.513,15.803,13.072,15.3,89,3,138.335,14,10,-0.163,0.258,0.947,119.176,-23.527,8.13,1.37,0.14,31.33579616,121.2274545,8.17
,,4.5,3.39,40.969,13.022,0.958,-1.667,-0.21,0.246,-0.966,0.941,1.984,-20.906,1050.259,2.392,5.538,5.445,-3.243,0,0.339,1.3,1,3,20.337,13.694,15.992,13.222,15.453,89,3,149.929,14.2,10,-0.166,0.256,0.728,117.972,-23.605,8.13,1.37,0.14,31.33579579,121.2274553,8.17
,,4.52,3.47,40.968,13.025,0.957,-1.667,-0.179,0.246,-0.964,1.005,2.332,-21.383,1056.551,2.447,5.533,5.435,-3.243,0,0.327,1.3,1,3,20.436,13.801,16.156,13.365,15.602,89,3,120.143,14.36,10,-0.168,0.251,0.728,117.972,-23.596,8.128,1.368,0.14,31.33579541,121.2274561,8.17
,,4.54,3.56,40.966,13.029,0.955,-1.667,-0.146,0.242,-0.977,0.964,2.259,-22.086,1062.842,2.503,5.528,5.425,-3.243,0,0.315,1.3,1,3,20.535,13.907,16.32,13.508,15.752,89,3,90.357,14.52,10,-0.17,0.247,0.728,117.972,-23.587,8.126,1.366,0.14,31.33579505,121.2274569,8.17
,,4.56,3.64,40.964,13.032,0.954,-1.667,-0.133,0.235,-0.99,0.975,1.474,-22.657,1069.133,2.558,5.524,5.415,-3.242,0,0.303,1.3,1,3,20.634,14.013,16.483,13.651,15.901,89,3,60.571,14.68,10,-0.172,0.242,0.728,117.972,-23.578,8.124,1.364,0.14,31.33579468,121.2274577,8.17
,,4.58,3.72,40.962,13.036,0.952,-1.668,-0.147,0.231,-0.993,1.087,0.619,-22.798,1075.425,2.614,5.519,5.404,-3.242,0,0.291,1.3,1,3,20.733,14.12,16.647,13.794,16.051,89,3,30.785,14.84,10,-0.174,0.237,0.728,117.972,-23.568,8.122,1.362,0.14,31.33579431,121.2274585,8.17
,,4.6,3.81,40.96,13.039,0.951,-1.668,-0.168,0.232,-0.993,1.219,-0.057,-22.759,1081.716,2.669,5.514,5.394,-3.242,0,0.279,1.3,1,3,20.832,14.226,16.811,13.936,16.2,89,3,1,15,10,-0.177,0.233,0.728,117.972,-23.559,8.12,1.36,0.14,31.33579395,121.2274594,8.16
,,4.62,3.89,40.958,13.043,0.95,-1.667,-0.189,0.236,-0.99,1.302,-0.518,-22.587,1090.753,2.687,5.405,5.31,-3.246,0,0.298,1.302,1,3,20.908,14.367,16.947,14.077,16.333,89,3,29.386,15.16,10,-0.178,0.226,0.627,116.934,-23.509,8.117,1.36,0.14,31.33579359,121.2274602,8.16
,,4.64,3.98,40.956,13.046,0.949,-1.667,-0.206,0.242,-0.985,1.296,-0.644,-22.344,1099.791,2.704,5.296,5.226,-3.251,0,0.318,1.304,1,3,20.984,14.508,17.084,14.218,16.466,89,3,57.773,15.32,10,-0.18,0.219,0.526,115.896,-23.458,8.115,1.36,0.14,31.33579323,121.2274611,8.16
,,4.66,4.07,40.954,13.05,0.949,-1.667,-0.213,0.248,-0.981,1.214,-0.408,-22.117,1108.828,2.721,5.186,5.142,-3.255,0,0.338,1.307,1,3,21.061,14.649,17.22,14.359,16.599,89,3,86.159,15.48,10,-0.182,0.212,0.425,114.858,-23.408,8.112,1.36,0.14,31.33579288,121.2274619,8.15
,,4.68,4.16,40.952,13.053,0.948,-1.667,-0.211,0.25,-0.977,1.081,0.014,-21.984,1117.865,2.738,5.077,5.058,-3.26,0,0.358,1.309,1,3,21.137,14.79,17.357,14.5,16.732,89,3,114.546,15.64,10,-0.184,0.206,0.324,113.82,-23.358,8.109,1.36,0.14,31.33579254,121.2274627,8.15
,,4.7,4.24,40.95,13.057,0.948,-1.667,-0.203,0.247,-0.977,0.912,0.586,-22.008,1126.903,2.756,4.967,4.974,-3.264,0,0.377,1.311,1,3,21.213,14.931,17.494,14.641,16.865,89,3,142.932,15.8,10,-0.185,0.199,0.224,112.781,-23.307,8.107,1.36,0.14,31.3357922,121.2274636,8.15
,,4.72,4.34,40.948,13.06,0.947,-1.667,-0.185,0.246,-1.001,0.726,1.699,-22.279,1131.555,2.718,5.03,5.037,-3.271,0,0.387,1.328,1,3,21.598,15.035,17.648,14.717,17.002,89,3,142.932,15.92,10,-0.189,0.193,0.204,112.584,-23.578,8.104,1.36,0.142,31.33579187,121.2274645,8.15
,,4.74,4.43,40.946,13.064,0.947,-1.666,-0.163,0.255,-1.042,0.9,2.446,-22.716,1136.206,2.681,5.092,5.099,-3.277,0,0.397,1.345,1,3,21.983,15.139,17.803,14.793,17.139,89,3,142.932,16.04,10,-0.193,0.187,0.185,112.387,-23.848,8.102,1.36,0.144,31.33579153,121.2274653,8.14
,,4.76,4.52,40.944,13.067,0.946,-1.666,-0.146,0.272,-1.066,1.468,2.007,-23.3,1140.858,2.643,5.154,5.162,-3.283,0,0.407,1.361,1,3,22.368,15.244,17.958,14.87,17.277,89,3,142.932,16.16,10,-0.196,0.181,0.165,112.19,-24.118,8.099,1.36,0.146,31.3357912,121.2274662,8.14
,,4.78,4.61,40.942,13.071,0.945,-1.666,-0.143,0.29,-1.058,2.143,0.576,-23.936,1145.51,2.606,5.217,5.225,-3.29,0,0.417,1.378,1,3,22.752,15.348,18.113,14.946,17.414,89,3,142.932,16.28,10,-0.2,0.175,0.146,111.993,-24.389,8.097,1.36,0.148,31.33579088,121.2274671,8.14
,,4.8,4.7,40.94,13.074,0.944,-1.666,-0.153,0.303,-1.025,2.568,-0.68,-24.51,1150.162,2.569,5.279,5.287,-3.296,0,0.428,1.394,1,3,23.137,15.453,18.268,15.022,17.551,89,3,142.932,16.4,10,-0.203,0.17,0.126,111.796,-24.659,8.094,1.36,0.15,31.33579056,121.227468,8.14
,,4.82,4.79,40.938,13.078,0.943,-1.667,-0.163,0.307,-0.992,2.635,-1.131,-24.94,1159.937,2.525,5.372,5.347,-3.299,0,0.41,1.395,1,3,23.168,15.555,18.403,15.123,17.675,89,3,141.333,16.52,10,-0.21,0.167,0.125,111.734,-25.296,8.093,1.358,0.154,31.33579025,121.2274689,8.14
,,4.84,4.89,40.936,13.081,0.942,-1.667,-0.169,0.305,-0.969,2.487,-1.038,-25.16,1169.712,2.482,5.465,5.406,-3.303,0,0.392,1.396,1,3,23.198,15.658,18.538,15.224,17.799,89,3,139.734,16.64,10,-0.216,0.164,0.124,111.672,-25.934,8.092,1.356,0.158,31.33578993,121.2274699,8.13
,,4.86,4.98,40.934,13.085,0.941,-1.667,-0.172,0.302,-0.954,2.353,-0.802,-25.215,1179.487,2.439,5.558,5.465,-3.306,0,0.375,1.397,1,3,23.229,15.76,18.674,15.325,17.923,89,3,138.135,16.76,10,-0.222,0.161,0.123,111.61,-26.571,8.09,1.354,0.162,31.33578963,121.2274708,8.13
,,4.88,5.08,40.932,13.088,0.94,-1.668,-0.172,0.3,-0.94,2.287,-0.511,-25.18,1189.262,2.396,5.65,5.524,-3.309,0,0.357,1.398,1,3,23.259,15.863,18.809,15.426,18.047,89,3,136.535,16.88,10,-0.228,0.158,0.122,111.548,-27.208,8.089,1.352,0.166,31.33578934,121.2274718,8.13
,,4.9,5.17,40.93,13.092,0.939,-1.668,-0.168,0.296,-0.929,2.195,0.033,-25.107,1199.038,2.352,5.743,5.583,-3.313,0,0.339,1.399,1,3,23.29,15.965,18.944,15.527,18.171,89,3,134.936,17,10,-0.235,0.156,0.121,111.487,-27.845,8.088,1.35,0.17,31.33578904,121.2274727,8.13
,,4.92,5.27,40.928,13.095,0.939,-1.668,-0.154,0.288,-0.927,1.939,1.249,-25.073,1206.149,2.324,5.866,5.696,-3.31,0,0.348,1.399,1,3,23.294,16.067,19.052,15.636,18.278,89,3,134.137,17.1,10,-0.241,0.158,0.091,110.226,-28.523,8.087,1.35,0.17,31.33578878,121.2274737,8.13
,,4.94,5.37,40.926,13.099,0.938,-1.667,-0.145,0.275,-0.942,1.746,2.111,-25.128,1213.26,2.295,5.989,5.809,-3.308,0,0.357,1.399,1,3,23.298,16.169,19.16,15.746,18.385,89,3,133.337,17.2,10,-0.248,0.16,0.061,108.966,-29.202,8.087,1.35,0.17,31.33578851,121.2274746,8.13
,,4.96,5.46,40.924,13.102,0.937,-1.668,-0.142,0.265,-0.971,1.694,2.821,-25.25,1220.371,2.266,6.113,5.922,-3.306,0,0.365,1.399,1,3,23.302,16.271,19.268,15.856,18.492,89,3,132.537,17.3,10,-0.254,0.162,0.031,107.705,-29.88,8.086,1.35,0.17,31.33578825,121.2274756,8.13
